City_ID,City,Country,Max Temp,Current Description,Lat,Lng,Hotel Name
0,Mahebourg,MU,72.25,light rain,-20.4081,57.7,Shandrani Beachcomber Resort & Spa
1,Bluff,NZ,42.94,overcast clouds,-46.6,168.3333,Bluff Homestead - Guesthouse & Campervan Park
2,Bethel,US,65.52,overcast clouds,41.3712,-73.414,Courtyard by Marriott Danbury
3,Yueyang,CN,80.78,clear sky,29.3333,113.0919,Delong Fortune Hotel
4,Punta Arenas,CL,46.51,clear sky,-53.15,-70.9167,Hotel Hain
5,Busselton,AU,51.85,few clouds,-33.65,115.3333,Observatory Guest House
6,Georgetown,MY,84.13,few clouds,5.4112,100.3354,Cititel Penang
7,Liwale,TZ,84.45,few clouds,-9.7667,37.9333,Tumaini Tulivu Lodge
8,Pisco,PE,64.45,haze,-13.7,-76.2167,Hotel San Isidro Oficial
9,Foam Lake,CA,53.85,few clouds,51.65,-103.5343,Foam Lake Campground
10,Carnarvon,AU,66.92,clear sky,-24.8667,113.6333,Hospitality Carnarvon
11,Tibati,CM,74.19,moderate rain,6.4667,12.6333,Tibati Hotel
12,Bengkulu,ID,76.3,overcast clouds,-3.8004,102.2655,Grage Hotel Bengkulu
13,Bambous Virieux,MU,72.21,light rain,-20.3428,57.7575,Casa Tia Villa
14,Atuona,PF,77.02,few clouds,-9.8,-139.0333,Hôtel Hiva Oa Hanakee Lodge
15,Constitucion,CL,50.16,overcast clouds,-35.3333,-72.4167,Hotel Boutique Las Azucenas
16,Phalaborwa,ZA,90.97,clear sky,-23.943,31.1411,Bothabelo Bed and Breakfast
17,Sur,OM,87.57,clear sky,22.5667,59.5289,Sur Plaza Hotel
18,Hermanus,ZA,56.8,light rain,-34.4187,19.2345,Misty Waves Boutique Hotel
19,Yurecuaro,MX,66.92,broken clouds,20.3333,-102.3,Hotel el Castillo
20,Mataura,NZ,36.81,overcast clouds,-46.1927,168.8643,Ellie's Villa
21,Puerto Ayora,EC,67.55,broken clouds,-0.7393,-90.3518,Finch Bay Galapagos Hotel
22,Scottsbluff,US,64.78,clear sky,41.8666,-103.6672,Hampton Inn & Suites Scottsbluff-Conference Center
23,Japura,ID,74.88,overcast clouds,-0.3167,102.35,Rumah mbah Jamah
24,Karratha,AU,73.45,light rain,-20.7377,116.8463,ibis Styles Karratha
25,Deogarh,IN,78.46,overcast clouds,21.5333,84.7333,Amit Henej House
26,Arraial Do Cabo,BR,67.71,clear sky,-22.9661,-42.0278,Pousada Porto Praia
27,Kismayo,SO,76.87,scattered clouds,-0.3582,42.5454,Agan-Hotel
28,Challans,FR,68.97,clear sky,46.8436,-1.8749,Citotel Le Challans
30,Ambilobe,MG,77.0,scattered clouds,-13.2,49.05,Hôtel & Restaurant DIANA Ambilobe
31,Kapaa,US,73.38,clear sky,22.0752,-159.319,Sheraton Kauai Coconut Beach Resort
32,Cape Town,ZA,61.27,overcast clouds,-33.9258,18.4232,"Radisson Blu Hotel Waterfront, Cape Town"
33,Torbay,CA,59.88,overcast clouds,47.6666,-52.7314,Gallows Cove
34,Faanui,PF,78.76,overcast clouds,-16.4833,-151.75,Bora-Bora Pearl Beach Resort & Spa
35,Ribeira Grande,PT,75.6,light intensity shower rain,38.5167,-28.7,Quinta da Meia Eira
36,Sakakah,SA,97.45,clear sky,29.9697,40.2064,Fakhamat Al Orjoana Apartment
37,East London,ZA,66.04,broken clouds,-33.0153,27.9116,Tu Casa
38,Finnsnes,NO,50.61,light rain,69.2296,17.9811,Finnsnes Hotel - A SNR Hotel
39,Bathsheba,BB,88.41,broken clouds,13.2167,-59.5167,Atlantis Hotel
40,Ushuaia,AR,40.66,scattered clouds,-54.8,-68.3,Albatross Hotel
41,Laguna,US,63.32,clear sky,38.421,-121.4238,"Holiday Inn Express & Suites Elk Grove Central - Hwy 99, an IHG Hotel"
42,Bud,US,78.21,broken clouds,39.447,-86.1758,Ted McQuinn Trust
43,Fortuna,US,53.65,overcast clouds,40.5982,-124.1573,Super 8 by Wyndham Fortuna
44,Rikitea,PF,72.32,clear sky,-23.1203,-134.9692,People ThankYou
45,Cocorit,MX,80.94,clear sky,27.5833,-109.9667,Kaba Motel
46,Grand Gaube,MU,72.37,clear sky,-20.0064,57.6608,Veranda Paul et Virginie Hotel & Spa
47,Lebu,CL,44.78,overcast clouds,-37.6167,-73.65,Hostal Las Lilas
48,Byron Bay,AU,51.76,clear sky,-28.65,153.6167,Backpackers Inn
49,Hervey Bay,AU,67.01,clear sky,-25.2986,152.8535,Shelly Bay Resort
51,Jamestown,US,74.52,clear sky,42.097,-79.2353,Hampton Inn & Suites Jamestown
52,Port Alfred,ZA,62.19,broken clouds,-33.5906,26.891,The Halyards Hotel
53,Qaanaaq,GL,29.95,clear sky,77.484,-69.3632,Qaanaaq Hotel
55,Bollnas,SE,51.58,overcast clouds,61.3482,16.3946,Grand Hotel
56,Sitka,US,44.49,clear sky,57.0531,-135.33,Westmark Sitka
58,Vaini,TO,73.56,scattered clouds,-21.2,-175.2,Keleti Beach Resort
59,Cabo San Lucas,MX,86.5,broken clouds,22.8909,-109.9124,Hotel Tesoro Los Cabos
60,Comodoro Rivadavia,AR,49.86,clear sky,-45.8667,-67.5,Austral Hotel
61,Peno,RU,52.45,overcast clouds,56.9262,32.7426,Country House Orlinka
63,Aklavik,CA,37.54,broken clouds,68.2191,-135.0107,Aklavik Inn
64,Nizhnekamsk,RU,61.59,overcast clouds,55.6366,51.8245,Hotel 116
65,San-Pedro,CI,79.56,overcast clouds,4.7485,-6.6363,Hotel Maria
66,Sorland,NO,53.46,scattered clouds,67.667,12.6934,Sjybrygga fiskecamp
67,Port Elizabeth,ZA,64.09,broken clouds,-33.918,25.5701,39 On Nile Guest House
68,Norman Wells,CA,43.29,clear sky,65.282,-126.8329,Heritage Hotel
69,Barrow,US,33.82,overcast clouds,71.2906,-156.7887,King Eider Inn
70,Puerto Del Rosario,ES,83.95,scattered clouds,28.5004,-13.8627,Hotel JM Puerto del Rosario
71,Wajir,KE,91.44,few clouds,1.7471,40.0573,Mahatallah Hotel
72,Castro,BR,58.95,scattered clouds,-24.7911,-50.0119,CHACARA BAILLY
73,Kafanchan,NG,71.64,overcast clouds,9.5833,8.3,Sir Joe guest Inn
74,Kavieng,PG,81.77,light rain,-2.5744,150.7967,Nusa Island Retreat
75,Zhaodong,CN,60.31,clear sky,46.0833,125.9833,Fuhe Hotel
76,Ixtapa,MX,81.23,broken clouds,20.7,-105.2,hotel la terminal
77,Bredasdorp,ZA,56.91,overcast clouds,-34.5322,20.0403,Bredasdorp Country Manor
78,Port Hardy,CA,48.45,few clouds,50.6996,-127.4199,Airport Inn-Port Hardy
79,Makakilo City,US,73.56,few clouds,21.3469,-158.0858,Marriott's Ko Olina Beach Club
80,Akdagmadeni,TR,81.55,scattered clouds,39.6603,35.8836,Hanedan Otel
81,Athabasca,CA,51.26,clear sky,54.7169,-113.2854,Athabasca Lodge Motel
82,Sabha,LY,98.87,clear sky,27.0377,14.4283,محطة ام الارانب -سبها مواصلات
83,Avarua,CK,69.85,few clouds,-21.2078,-159.775,Paradise Inn
84,Meulaboh,ID,76.75,moderate rain,4.1363,96.1285,Kost Pria
86,Saldanha,ZA,57.6,overcast clouds,-33.0117,17.9442,Blue Bay Lodge
87,Hilo,US,83.28,few clouds,19.7297,-155.09,Hilo Hawaiian Hotel
88,Kang,BW,85.91,clear sky,-23.6752,22.7876,Kang Ultra Stop
89,Duncan,US,82.29,clear sky,34.5023,-97.9578,Days Inn by Wyndham Duncan
90,Khatanga,RU,26.47,broken clouds,71.9667,102.5,"""Khatanga"""
91,Iesolo,IT,65.1,broken clouds,45.5331,12.6448,Hotel Metropol
92,Jalu,LY,94.77,clear sky,29.0331,21.5482,صاحبة الفخامة
93,Hithadhoo,MV,82.44,few clouds,-0.6,73.0833,Scoop Guest House
94,Nikolskoye,RU,57.09,overcast clouds,59.7035,30.7861,Tourist House - Sablino
95,Margate,GB,64.69,scattered clouds,51.3813,1.3862,Premier Inn Margate hotel
96,Tahta,EG,92.23,clear sky,26.7693,31.5021,فندق الزيات
97,Kaitangata,NZ,39.92,broken clouds,-46.2817,169.8464,Kaitangata Motor Camp
98,Buncrana,IE,60.57,broken clouds,55.1333,-7.45,Inishowen Gateway Hotel
99,Hobart,AU,49.05,scattered clouds,-42.8794,147.3294,St Ives Hobart Accommodation Tasmania
100,Yellowknife,CA,45.12,overcast clouds,62.456,-114.3525,The Explorer Hotel
101,Tela,HN,78.75,broken clouds,15.7833,-87.45,Hotel & Restaurante Cesar Mariscos
102,Waitati,NZ,44.8,broken clouds,-45.75,170.5667,Arden Country House BnB Dunedin
104,Mingguang,CN,70.66,clear sky,32.7802,117.9638,Yonghao Hotel
105,Petropavlovsk-Kamchatskiy,RU,42.57,clear sky,53.0452,158.6483,The Hotel Petropavlovsky
106,Wanning,CN,79.79,broken clouds,18.8003,110.3967,Paradise Hotel
107,Bandarbeyla,SO,77.32,scattered clouds,9.4942,50.8122,JABIR HOTEL
108,Moindou,NC,69.8,clear sky,-21.6924,165.677,Equi-lodge de Moindou
109,Linjiang,CN,63.41,overcast clouds,41.8069,126.9078,格林豪泰
111,Lompoc,US,59.52,overcast clouds,34.6391,-120.4579,"Holiday Inn Express Lompoc, an IHG Hotel"
112,La Orilla,MX,78.22,overcast clouds,17.9833,-102.2333,Baymont by Wyndham Lazaro Cardenas
113,Flin Flon,CA,55.17,few clouds,54.7682,-101.865,Victoria Inn Flin Flon
115,Caravelas,BR,68.95,broken clouds,-17.7125,-39.2481,Pousada dos Navegantes
116,Tasiilaq,GL,39.36,light rain,65.6145,-37.6368,The Red House
117,Spencer,US,69.84,overcast clouds,43.1414,-95.1444,Reston Inn & Suites
118,Tuatapere,NZ,39.52,overcast clouds,-46.1333,167.6833,Ron and Tony's Bed & Breakfast
120,Butaritari,KI,81.7,scattered clouds,3.0707,172.7902,Isles Sunset Lodge
121,Malakal,SS,78.75,broken clouds,9.5334,31.6605,Nile Palace Hotel
122,Maumere,ID,78.87,broken clouds,-8.6199,122.2111,Sylvia Hotel
123,Palana,RU,41.58,broken clouds,59.1167,159.9667,Chikago
124,Martinsville,US,75.0,clear sky,36.6915,-79.8725,Hampton Inn Martinsville
125,Talnakh,RU,34.21,overcast clouds,69.4865,88.3972,Talnakh Hotel
126,Nouadhibou,MR,74.19,clear sky,20.931,-17.0347,El Medina
129,Namibe,AO,70.61,few clouds,-15.1961,12.1522,Hotel Chik Chik Namibe
130,Heihe,CN,54.99,overcast clouds,50.2441,127.4902,Hotel Strannik
131,College,US,46.9,scattered clouds,64.8569,-147.8028,Pike's Waterfront Lodge
132,Narsaq,GL,57.42,light rain,60.9167,-46.05,Sleep In Narsaq
133,Pevek,RU,33.66,light snow,69.7008,170.3133,Severnoye Zoloto
134,Iseyin,NG,78.39,light rain,7.9667,3.6,Momak Hotels And Suites
135,Mar Del Plata,AR,66.22,clear sky,-38.0023,-57.5575,Gran Hotel Mar del Plata
136,Cidreira,BR,64.15,clear sky,-30.1811,-50.2056,Hotel Castelo
137,Vestmannaeyjar,IS,52.79,clear sky,63.4427,-20.2734,Glamping & Camping
138,Sweetwater,US,90.0,broken clouds,25.7634,-80.3731,Courtyard by Marriott Miami at Dolphin Mall
139,Moose Factory,CA,59.0,overcast clouds,51.2585,-80.6094,Moosonee Lilypad
140,Omboue,GA,78.6,overcast clouds,-1.5746,9.2618,Hotel Olako
141,Lucea,JM,88.86,clear sky,18.451,-78.1736,Grand Palladium Jamaica Resort & Spa
142,Svetlyy,RU,55.45,few clouds,54.675,20.1347,"Gostinitsa-Kafe, Alena"
143,Vardo,NO,46.38,light intensity shower rain,70.3705,31.1107,Vardø Hotel AS
144,Abnub,EG,91.76,clear sky,27.2696,31.1511,دوار ال عبد الجواد شرق البلد بابنوب
145,Kruisfontein,ZA,61.88,overcast clouds,-34.0033,24.7314,Oyster Bay House Rental
146,Galesong,ID,77.02,broken clouds,-5.3166,119.3661,Sapriadi Appy
147,Saint-Philippe,RE,71.19,light rain,-21.3585,55.7679,Le four à pain
148,San Quintin,MX,67.64,overcast clouds,30.4833,-115.95,Don Eddie's Sport Fishing Center
150,Benguela,AO,75.6,broken clouds,-12.5763,13.4055,Hotel Praia Morena
151,Upernavik,GL,34.34,broken clouds,72.7868,-56.1549,Café de Upernavik
152,Coahuayana,MX,76.23,overcast clouds,18.7333,-103.6833,El rranchito michuacan de ocampos
153,Bagdarin,RU,34.9,broken clouds,54.4333,113.6,Gostevoy Dom Terem
154,Erenhot,CN,57.45,clear sky,43.6475,111.9767,Erenhot Rurouni Youth Hostel
155,San Patricio,US,89.83,clear sky,28.017,-97.5169,"Motel 6 Sinton, TX"
156,Masterton,NZ,48.88,overcast clouds,-40.9597,175.6575,Copthorne Hotel & Resort Solway Park Wairarapa
158,Clarence Town,AU,61.95,clear sky,-32.5833,151.7833,River Downs Cottage
159,Iroquois Falls,CA,48.36,moderate rain,48.7669,-80.6831,Auberge MacDonald Guest Inn
160,Along,IN,74.21,broken clouds,28.1667,94.7667,Hotel West
161,Beaverton,US,54.41,clear sky,45.4871,-122.8037,Best Western Portland West Beaverton
162,Moron,AR,73.94,overcast clouds,-34.6534,-58.6198,Hotel Morón
163,Saint-Georges,GD,85.89,broken clouds,12.0564,-61.7485,Radisson Grenada Beach Resort
164,Lata,PT,86.92,broken clouds,40.1629,-8.3327,Casa Maquia
165,Pacifica,US,60.48,mist,37.6138,-122.4869,"Pacifica Lighthouse, Trademark Collection by Wyndham"
166,Pravia,ES,68.68,scattered clouds,43.4906,-6.1508,Antiguo Casino Hotel
167,Tiksi,RU,35.44,overcast clouds,71.6872,128.8694,Arktika
168,Hasaki,JP,77.4,overcast clouds,35.7333,140.8333,Inubosaki Kanko Hotel
169,Tual,ID,80.73,overcast clouds,-5.6667,132.75,Grand Vilia Hotel
170,Clyde River,CA,36.72,overcast clouds,70.4692,-68.5914,Qamaq Hotel
171,Impfondo,CG,73.78,light rain,1.6381,18.0667,Auberge La Place de Jules
172,Llanes,ES,68.59,overcast clouds,43.4198,-4.7549,Hotel La Paz
173,Les Cayes,HT,88.83,clear sky,18.2,-73.75,Villa Orphee
174,Mogadishu,SO,77.18,scattered clouds,2.0371,45.3438,Hotel Juba
175,Takaungu,KE,76.64,few clouds,-3.6837,39.8566,Takaungu House
176,Osakarovka,KZ,50.29,clear sky,50.565,72.5692,Motel' Osakarovka
177,Praxedis Guerrero,MX,76.46,clear sky,31.3667,-106.0167,Congregación placitas de Otero
178,Kavaratti,IN,80.82,overcast clouds,10.5669,72.642,Green leaf
179,Kutum,SD,76.41,overcast clouds,14.2,24.6667,Dibbo areaمنطقة دبو
180,Lagoa,PT,73.33,clear sky,39.05,-27.9833,Casa Das Faias
181,Goderich,CA,72.91,overcast clouds,43.7501,-81.7165,Harmony Inn
182,Miri,MY,80.31,overcast clouds,4.4148,114.0089,"Mega Hotel, Miri"
183,Abu Dhabi,AE,95.11,few clouds,24.4667,54.3667,Beach Rotana
184,Kalmunai,LK,81.46,broken clouds,7.4167,81.8167,VS Villa
186,Matagami,CA,55.08,overcast clouds,49.7502,-77.6328,Motel Le Caribou
187,Baghdad,IQ,98.51,clear sky,33.3406,44.4009,Baghdad Hotel
188,Tuktoyaktuk,CA,39.63,overcast clouds,69.4541,-133.0374,End of The Road Ltd.
189,Covington,US,79.25,clear sky,39.0837,-84.5086,Cincinnati Marriott at RiverCenter
190,New Norfolk,AU,48.7,light rain,-42.7826,147.0587,The Shingles Riverside Cottages
191,Acarau,BR,88.41,scattered clouds,-2.8856,-40.12,castelo pizzaria
192,Bulgan,MN,40.66,broken clouds,48.8125,103.5347,Unitel Булган салбар
193,Khash,IR,82.26,clear sky,28.2211,61.2158,خوابگاه آبجی محدثه
194,Tibiri,NE,82.15,overcast clouds,13.5627,7.0485,FADA GAO FA TIBIRI
195,Basco,PH,83.43,overcast clouds,20.4487,121.9702,Nathaniel's Lodge
196,Cabatuan,PH,76.57,overcast clouds,10.8794,122.486,MVC Transient Room
197,Svetlogorsk,BY,59.59,overcast clouds,52.6333,29.7333,Hotel Svetlogorsk JBIK
198,Oberstdorf,DE,45.64,light rain,47.4,10.2833,Parkhotel Frank
199,Sakata,JP,73.2,overcast clouds,38.9167,139.855,Hotel Rich & Garden Sakata
200,Kodiak,US,54.91,few clouds,57.79,-152.4072,Best Western Kodiak Inn
201,Williams Lake,CA,40.05,broken clouds,52.1415,-122.1445,Stampeder Motel
202,Clonakilty,IE,61.81,broken clouds,51.6231,-8.8706,Inchydoney Island Lodge & Spa
203,Gat,IL,85.41,clear sky,31.61,34.7642,OlusHome
204,Skibbereen,IE,59.76,broken clouds,51.55,-9.2667,The West Cork Hotel
205,Raudeberg,NO,49.96,overcast clouds,61.9875,5.1352,Nordre Silda.
206,Cherskiy,RU,30.97,overcast clouds,68.75,161.3,Gostinitsa
207,Madoc,CA,67.96,overcast clouds,44.5084,-77.4745,Quality RV Services & Campground
208,Takoradi,GH,80.02,broken clouds,4.8845,-1.7554,Raybow International Hotel
209,Zalantun,CN,50.59,clear sky,48.0,122.7167,GreenTree Alliance Hulunbeier Zhalantun Railway Station Hotel
210,Padang,ID,77.18,light rain,-0.9492,100.3543,Mercure Padang
211,Neiafu,TO,75.88,few clouds,-18.65,-173.9833,Mystic Sands Beachfront Accommodation
212,Alagoinhas,BR,83.79,broken clouds,-12.1356,-38.4192,Alagoinhas Plaza Hotel
213,Pascagoula,US,84.33,clear sky,30.3658,-88.5561,Regency Inn
215,Marsa Matruh,EG,78.98,clear sky,31.3525,27.2453,Beau Site
216,Deputatskiy,RU,28.29,overcast clouds,69.3,139.9,Baza Otdykha
218,Necochea,AR,65.73,moderate rain,-38.5473,-58.7368,dyd -mar Hotel
219,Severo-Kurilsk,RU,49.35,few clouds,50.6789,156.125,Kak Doma
220,Jiutai,CN,59.2,clear sky,44.1525,125.8328,Jinhua Restaurant
222,Bilibino,RU,27.93,overcast clouds,68.0546,166.4372,Gostinitsa Severyanka
223,Palmares Do Sul,BR,67.98,clear sky,-30.2578,-50.5097,Hotel Campos Dourados.
224,Tay Ninh,VN,78.76,overcast clouds,11.3,106.1,Thanh Tuyền Hotel
225,Ahipara,NZ,46.89,clear sky,-35.1667,173.1667,Ahipara Holiday Park
226,Moanda,GA,81.63,overcast clouds,-1.5575,13.2178,Heliconia Stadium Moanda
228,Tarko-Sale,RU,51.08,overcast clouds,64.9225,77.785,Yubileynaya
229,Portland,US,55.36,broken clouds,45.5234,-122.6762,Embassy Suites by Hilton Portland Downtown
230,Lucapa,AO,82.71,overcast clouds,-8.4192,20.7447,Lírio Mendes
231,Stonewall,CA,56.79,overcast clouds,50.1344,-97.3268,Rockwood Motor Inn & Motel
232,Zhigansk,RU,30.52,overcast clouds,66.7697,123.3711,Gostinichnyy Kompleks Aylgy
233,Borovoy,RU,49.28,clear sky,55.4333,86.0833,Tsimus
234,Tinglev,DK,58.78,overcast clouds,54.931,9.2524,Uge Lystfiskeri og Camping
236,Lorengau,PG,81.41,broken clouds,-2.0226,147.2712,Lorengau Harbourside Hotel
239,Matay,EG,90.66,clear sky,28.419,30.7792,Nag Aespen
240,Middelburg,ZA,79.59,clear sky,-25.7751,29.4648,Oregon Place Guest House
241,Tura,IN,75.22,scattered clouds,25.5198,90.2201,Hotel RIKMAN Continental
242,North Branch,US,70.12,broken clouds,45.5113,-92.9802,AmericInn by Wyndham North Branch
243,Tuscaloosa,US,79.21,scattered clouds,33.2098,-87.5692,Hampton Inn Tuscaloosa-University
244,Cayenne,GF,89.64,broken clouds,4.9333,-52.3333,Hôtel Le Dronmi
245,Wajima,JP,77.22,overcast clouds,37.4,136.9,Wajiima Onsen Yashio
246,Novyy Oskol,RU,60.31,overcast clouds,50.7631,37.8691,Hotel Chistopol
247,Altagracia De Orituco,VE,86.97,scattered clouds,9.8601,-66.3814,Posada Quinta Mi Refugio
248,Axim,GH,81.36,broken clouds,4.8699,-2.2405,Axim Beach Resort And Spa
249,Touros,BR,85.08,scattered clouds,-5.1989,-35.4608,INN NEW HORIZON
251,Idaho Falls,US,53.38,clear sky,43.4666,-112.0341,Hilton Garden Inn Idaho Falls
252,Huilong,CN,76.93,clear sky,31.8111,121.655,Hilton Garden Inn Qidong
253,Amahai,ID,75.45,light rain,-3.3333,128.9167,HOTEL ISABELA
254,Puerto Escondido,MX,76.03,overcast clouds,15.85,-97.0667,Aldea del Bazar Hotel and Spa
255,Yunyang,CN,79.59,overcast clouds,33.4474,112.7142,Post & Telecom Hotel
256,Honningsvag,NO,46.15,light rain,70.9821,25.9704,Nordkapp Vandrerhjem
257,Esperance,AU,57.18,broken clouds,-33.8667,121.9,Hospitality Esperance
258,Chuy,UY,65.84,overcast clouds,-33.6971,-53.4616,Nuevo Hotel Plaza
259,Termiz,UZ,78.89,haze,37.2242,67.2783,Hotel Sharq
260,Rio Grande,BR,67.95,scattered clouds,-32.035,-52.0986,Hotel Atlântico Rio Grande
261,Mount Isa,AU,74.97,clear sky,-20.7333,139.5,ibis Styles Mt Isa Verona
262,Zaragoza,ES,77.86,clear sky,41.6561,-0.8773,Hotel Goya
263,Isangel,VU,72.82,scattered clouds,-19.55,169.2667,Tanna Lodge
264,Behbahan,IR,93.87,clear sky,30.5959,50.2417,فروشگاه ابوعلی
265,Pudozh,RU,49.5,overcast clouds,61.8099,36.5345,Guest-House na Transportnoy
266,Dolores,AR,66.6,overcast clouds,-36.3132,-57.6792,Apart Hotel - Arianos
267,Rabo De Peixe,PT,76.51,few clouds,37.8,-25.5833,Quinta das Giestas
268,Ilulissat,GL,44.62,broken clouds,69.2167,-51.1,Hotel Arctic
269,Casma,CL,46.0,overcast clouds,-41.0082,-73.1244,Hospedaje Casma
270,Haimen,CN,79.16,broken clouds,23.1935,116.6142,Shantou Chaoyang Donghui Hotel
272,Nagaur,IN,84.6,clear sky,27.2,73.7333,Ranvas Nagaur
273,Khandyga,RU,41.81,overcast clouds,62.6667,135.6,Apel'sin
274,Churapcha,RU,39.92,overcast clouds,62.0025,132.4325,"""Tusku"""
275,Port Lincoln,AU,54.52,overcast clouds,-34.7333,135.8667,Port Lincoln Hotel
276,Codrington,AU,51.01,overcast clouds,-38.2667,141.9667,Codrington Gardens Bed And Breakfast
277,Yinchuan,CN,76.1,overcast clouds,38.4681,106.2731,JJ Inns - Yinchuan New Moon Square Branch
278,Port Hedland,AU,68.05,clear sky,-20.3167,118.5667,The Esplanade Hotel
279,Anori,BR,98.85,overcast clouds,-3.7728,-61.6442,Novo Hotel 5 Irmãos
280,Agucadoura,PT,84.31,overcast clouds,41.4318,-8.7804,Varzinn Hotel
281,Fairbanks,US,46.92,clear sky,64.8378,-147.7164,Westmark Fairbanks Hotel & Conference Center
282,Chumikan,RU,50.56,overcast clouds,54.7183,135.315,Fortuna
283,Turukhansk,RU,39.51,overcast clouds,65.8167,87.9833,"ООО ""Туруханская пушнина"""
284,Vanimo,PG,77.2,few clouds,-2.6741,141.3028,Vahmoneh Lodge Vanimo
285,Shingu,JP,79.54,overcast clouds,33.7333,135.9833,Shingu UI Hotel
287,Geraldton,AU,54.01,clear sky,-28.7667,114.6,Broadwater Mariner Resort
288,Erzin,TR,82.18,clear sky,36.9559,36.2,Artemis Otel
289,Jarville-La-Malgrange,FR,57.52,broken clouds,48.6691,6.2064,Hôtel Mercure Nancy Centre Place Stanislas
290,Guerrero Negro,MX,69.48,clear sky,27.9769,-114.0611,"Casa Laguna, Bed & Breakfast"
291,Waspan,NI,82.27,overcast clouds,14.7419,-83.9717,Hostal casa de la rose
292,Luanshya,ZM,86.38,broken clouds,-13.1367,28.4166,CHOLWA GUEST HOUSE
294,Berlevag,NO,46.35,overcast clouds,70.8578,29.0864,Kvitbrakka
295,Finschhafen,PG,79.41,few clouds,-6.6024,147.8681,Oasis Gagidu Ltd
296,Yeppoon,AU,60.58,clear sky,-23.1333,150.7333,Villa Mar Colina
297,Serebryansk,KZ,48.49,clear sky,49.6925,83.2892,"Gostinitsa ""Vodoley"""
298,Yambio,SS,77.38,light rain,4.5721,28.3955,Naivasha Hotel
300,Aransas Pass,US,89.98,scattered clouds,27.9095,-97.15,Microtel Inn & Suites by Wyndham Aransas Pass/Corpus Christi
301,Laramie,US,59.54,clear sky,41.3114,-105.5911,Fairfield Inn & Suites by Marriott Laramie
302,Nadvoitsy,RU,52.41,light rain,63.8667,34.3167,Sever Nadvoitsy
303,Iqaluit,CA,45.7,overcast clouds,63.7506,-68.5145,Frobisher Inn
304,Wonthaggi,AU,51.82,broken clouds,-38.6044,145.5913,Wonthaggi Caravans & Trailers
305,Khuldabad,IN,70.63,overcast clouds,20.05,75.1833,Capital O 29643 Etranger Resort
306,Khasan,RU,67.57,overcast clouds,42.4308,130.6434,Fangchuan Self-Driving Camp
308,Westerland,DE,57.94,scattered clouds,54.9079,8.3033,Dorint Strandresort & Spa Westerland / Sylt
309,Guiren,CN,68.85,clear sky,33.6697,118.1889,Suyuan Hotel
310,Shache,CN,72.72,overcast clouds,38.4167,77.2406,Delong Hotel
311,Kahului,US,74.84,clear sky,20.8947,-156.47,Maui Seaside Hotel
312,Yenangyaung,MM,80.74,overcast clouds,20.4667,94.8833,Hotel Country
313,Akhisar,TR,95.9,clear sky,38.9185,27.8401,Seybils Otel
314,Berezovyy,RU,45.09,overcast clouds,51.6667,135.7,"Hotel ""Phoenix"""
316,Yabrud,SY,79.84,clear sky,33.9674,36.6574,صالة افراح الاندلس
317,Caraquet,CA,57.52,clear sky,47.7941,-64.9386,Gite Le Poirier
318,Mulege,MX,85.55,clear sky,26.8833,-111.9833,Casa Granada
320,Ihosy,MG,66.18,broken clouds,-22.4,46.1167,Tamana hôtel
321,Seguela,CI,77.99,overcast clouds,7.9611,-6.6731,Hotel le Carrefour
322,Haines Junction,CA,35.13,few clouds,60.7522,-137.5108,Parkside Inn
323,Roald,NO,53.76,broken clouds,62.5833,6.1333,Flem Cabins
324,Concordia,AR,70.79,overcast clouds,-31.393,-58.0209,Palmar Hotel Casino
325,Oeiras Do Para,BR,94.84,scattered clouds,-2.0031,-49.8544,Araticu Soft Hotel
326,Itupiranga,BR,93.52,overcast clouds,-5.1347,-49.3267,Hotel Panorama
327,Saint George,US,66.79,clear sky,37.1041,-113.5841,Best Western Plus Abbey Inn
328,Half Moon Bay,US,60.66,mist,37.4636,-122.4286,"The Ritz-Carlton, Half Moon Bay"
329,Samarai,PG,81.64,broken clouds,-10.6167,150.6667,Nuli Sapi
330,Chernyshevskiy,RU,29.37,broken clouds,63.0128,112.4714,Chernyseyskiy
331,Katsuura,JP,78.96,overcast clouds,35.1333,140.3,Katsuura Hotel Mikazuki
332,Inuvik,CA,38.95,overcast clouds,68.3499,-133.7218,Nova Inn Inuvik
333,Ereymentau,KZ,50.4,clear sky,51.6199,73.1033,"Gostinitsa ""Dostyk"""
334,Marsh Harbour,BS,84.51,scattered clouds,26.5412,-77.0636,Abaco Beach Resort
335,Aguimes,ES,83.03,few clouds,27.9054,-15.4461,Hotel Villa de Aguimes
336,Krasnyy Yar,RU,75.13,overcast clouds,46.5331,48.3456,Cottege near Ufa
337,Tucuman,AR,77.0,clear sky,-26.8241,-65.2226,Dallas Hotel Tucuman
338,Pahrump,US,73.94,clear sky,36.2083,-115.9839,Best Western Pahrump Oasis
339,Bolobo,CD,83.52,overcast clouds,-2.1667,16.2333,Hotel de Stephen
340,Yar-Sale,RU,51.22,overcast clouds,66.8333,70.8333,Yalemd
341,Qasigiannguit,GL,44.85,overcast clouds,68.8193,-51.1922,Almost HOME
342,Ponta Delgada,PT,77.72,few clouds,37.7333,-25.6667,Vila Nova Hotel
343,Sao Jose Da Coroa Grande,BR,80.22,few clouds,-8.8978,-35.1478,Crôa Mares Hotel
344,Brvenica,MK,73.2,overcast clouds,41.9672,20.9808,TIVOLI Hotel & Restaurant
346,Casablanca,MA,80.82,clear sky,33.5928,-7.6192,فندق البيت المغربي كازبلانكا
347,Fussen,DE,52.59,overcast clouds,47.8739,12.1695,Hotel Gasthof Flötzinger Bräu
348,Dera Ghazi Khan,PK,92.01,clear sky,30.0561,70.6348,Hamlani Khosa Chowk
349,Baculin,PH,80.11,overcast clouds,7.4525,126.5842,Baculin Cove Beach Resort
350,Santa Cruz,BO,86.05,clear sky,-17.8,-63.1667,Aviador Hotel Boutique
351,Ust-Ishim,RU,48.9,overcast clouds,57.6935,71.1665,"Velichko T.p., Gostinitsa"
354,Pirdop,BG,66.67,moderate rain,42.7,24.1833,Kompleks Borova Gora (Sidi Grup Ad)
355,Halifax,CA,63.21,clear sky,44.6453,-63.5724,Hotel Halifax
356,Shuangcheng,CN,59.77,clear sky,45.35,126.2833,Xingcheng Hotel
357,Methoni,GR,89.46,clear sky,36.8197,21.7049,Methoni Beach Hotel
359,Madang,PG,75.24,scattered clouds,-5.2246,145.7966,Comfort Inn Hotel
360,Chiredzi,ZW,90.09,clear sky,-21.05,31.6667,Clevers Hotel Chiredzi
361,Ponta Do Sol,PT,83.71,light rain,32.6667,-17.1,Hotel do Campo
363,San Cristobal,VE,78.98,overcast clouds,7.7669,-72.225,Pirineos
364,Pachino,IT,83.91,scattered clouds,36.7186,15.0907,Il Veliero
365,Longyearbyen,SJ,28.24,scattered clouds,78.2186,15.6401,"Radisson Blu Polar Hotel, Spitsbergen"
366,Pergamino,AR,75.04,overcast clouds,-33.89,-60.5736,Hotel Fachinat
367,Kikerino,RU,51.53,overcast clouds,59.4667,29.6333,Дом в деревне
368,Tongliao,CN,60.57,clear sky,43.6125,122.2653,Meirujia Hotel
370,Gram,DK,57.58,broken clouds,55.2895,9.0491,Gram Slot
372,Hirara,JP,80.65,overcast clouds,24.8,125.2833,Hotel Atoll Emerald Miyakojima
373,Kirkwall,GB,51.96,broken clouds,58.9848,-2.9587,Kirkwall Hotel
374,Kirakira,SB,78.8,broken clouds,-10.4544,161.9205,SanBiz Lodge
375,Port Antonio,JM,93.0,light rain,18.18,-76.4612,The Trident Hotel
377,Santiago Del Estero,AR,82.92,scattered clouds,-27.7951,-64.2615,Apartamentos Castelli 90
379,Los Llanos De Aridane,ES,76.75,few clouds,28.6585,-17.9182,Valle Aridane
380,Ancud,CL,45.23,clear sky,-41.8697,-73.8203,Hotel Arena Gruesa
384,Maceio,BR,81.84,broken clouds,-9.6658,-35.7353,Hotel Ponta Verde Maceió
386,Hobyo,SO,77.29,scattered clouds,5.3505,48.5268,Halane Hotel and Restaurent
387,Sibu,MY,75.13,overcast clouds,2.3,111.8167,RH HOTEL (4 Star)
388,Butte,US,61.02,clear sky,39.6499,-121.5677,Meadowbrook Oaks Mobile Home Park
389,Hwange,ZW,87.66,clear sky,-18.3693,26.5019,Hwange Colliery Guest House
390,Menongue,AO,91.22,scattered clouds,-14.6585,17.691,Ritz Lauca
391,Sydney Mines,CA,58.24,overcast clouds,46.2367,-60.2177,At The Harbourfront B&B Inc
392,Gizo,SB,82.33,broken clouds,-8.103,156.8419,Imagination Island
393,Fort Frances,CA,62.17,overcast clouds,48.5999,-93.4003,LA PLACE RENDEZ-VOUS
394,Naze,JP,79.14,overcast clouds,28.3667,129.4833,Shishime Hotel
395,Cockburn Town,TC,84.16,scattered clouds,21.4612,-71.1419,Osprey Beach Hotel
396,La Palma,US,70.5,broken clouds,33.8464,-118.0467,La Quinta Inn & Suites by Wyndham Buena Park
397,Pyu,MM,75.27,light rain,18.4833,96.4333,Mr Bo Bo
398,La Ronge,CA,50.45,overcast clouds,55.1001,-105.2842,Northland Motor Hotel
399,Xining,CN,57.63,broken clouds,36.6167,101.7667,Super Leisure Hotel
400,Matane,CA,52.93,clear sky,48.8286,-67.522,Hotel-Motel Belle Plage
401,Huambo,AO,86.54,overcast clouds,-12.7761,15.7392,SiSHotel
402,Mackenzie,CA,46.62,overcast clouds,55.2999,-123.1698,Hilton Shop
403,Murgab,TM,80.71,clear sky,37.4966,61.9714,Wepa Nurlyýew
404,Mersing,MY,77.7,broken clouds,2.4312,103.8405,Timotel Hotel
405,Acoua,YT,78.71,clear sky,-12.7239,45.0582,Gîte de Mliha
406,Moriyama,JP,80.15,light rain,35.0667,135.9833,Art Rits Hotel
407,Alofi,NU,76.24,clear sky,-19.0595,-169.9187,Taloa Heights
408,Mudanjiang,CN,60.71,overcast clouds,44.5833,129.6,Landi Express Business Hotel
409,Namatanai,PG,78.75,overcast clouds,-3.6667,152.4333,Seagulls Inn Namatani
410,Dubrovytsya,UA,59.77,overcast clouds,51.5744,26.565,Druzhba
411,Kelo,TD,77.67,overcast clouds,9.3086,15.8066,Plantation de Kelo
412,Puntarenas,CR,81.64,scattered clouds,9.9763,-84.8384,Hotel Don Robert
413,Nanortalik,GL,46.11,overcast clouds,60.1432,-45.2371,Hotel Kap Farvel
414,Asyut,EG,91.65,clear sky,27.181,31.1837,فندق ميس إيجيبت Miss Egypt Hotel
415,Ketchikan,US,48.67,scattered clouds,55.3422,-131.6461,Snow's Cove Lodge
416,Kijang,KR,74.55,overcast clouds,35.2442,129.2139,Samyang Beach Villa
417,Kieta,PG,78.03,light rain,-6.2167,155.6333,Uruna Bay Retreat
418,High Level,CA,51.91,shower rain,58.5169,-117.136,Days Inn by Wyndham High Level
420,Oussouye,SN,82.31,light rain,12.485,-16.5469,Auberge du Routard
421,Krasnoselkup,RU,49.46,overcast clouds,65.7,82.4667,Krasnosel'kupnefteprodukt
422,Gibara,CU,88.92,few clouds,21.1097,-76.1317,Sol y Mar
423,Lichinga,MZ,73.81,broken clouds,-13.3128,35.2406,Residencial Bendiak
424,Pipri,IN,76.15,overcast clouds,19.8,75.5333,Sukhana River nilu and rushi home
425,Portree,GB,52.52,overcast clouds,57.4129,-6.1942,The Royal Hotel
426,Quchan,IR,67.51,clear sky,37.106,58.5095,گلیم دستبافت کیمیایی
427,Umm Lajj,SA,86.14,clear sky,25.0213,37.2685,Moon light Furnished Units
428,Karatau,KZ,70.0,overcast clouds,43.1667,70.4667,Baza Zika
429,Imbituba,BR,67.86,broken clouds,-28.24,-48.6703,Praia Hotel Imbituba
430,Ugoofaaru,MV,81.95,scattered clouds,5.6667,73.0,Ungoofaaru Inn
431,Kununurra,AU,69.78,scattered clouds,-15.7667,128.7333,Hotel Kununurra
432,Loandjili,CG,75.94,overcast clouds,-4.7561,11.8578,Résidence ARCHANGE
433,Komsomolskiy,UZ,75.92,scattered clouds,40.4272,71.7189,Ikathouse
434,Kuytun,RU,40.32,scattered clouds,54.3419,101.5036,Gostinitsa Tsentral'naya
435,Dudinka,RU,34.63,snow,69.4058,86.1778,Hotel Viktoria
436,Nuevo Progreso,MX,81.12,broken clouds,23.1667,-97.95,Balneario Rio el Paraiso
437,Ngunguru,NZ,50.25,scattered clouds,-35.6167,174.5,Pacific Rendezvous Motel Resort
438,Wahiawa,US,71.76,broken clouds,21.5028,-158.0236,The Inn At Schofield
439,Northam,GB,61.39,overcast clouds,51.0333,-4.2167,Durrant House Hotel
440,Acapulco,MX,75.02,overcast clouds,16.8634,-99.8901,HS Hotsson Smart Acapulco
442,Manaure,CO,84.94,broken clouds,11.7751,-72.4445,Hotel Palaaima
443,Husavik,IS,44.8,overcast clouds,66.0449,-17.3389,Bjarnabúð
447,Tuy Hoa,VN,78.73,scattered clouds,13.0833,109.3,CenDeluxe Hotel Tuy Hoa
448,Viedma,AR,59.18,overcast clouds,-40.8135,-62.9967,Hotel Cristal
449,Vila Franca Do Campo,PT,77.41,scattered clouds,37.7167,-25.4333,Pestana Bahia Praia
451,Cerrito,CO,62.38,overcast clouds,6.8432,-72.694,Yariseth juliana
453,Kudamatsu,JP,82.36,heavy intensity rain,34.0,131.8667,Hotel AZ Yamaguchi Kudamatsu
454,Beira,MZ,77.09,few clouds,-19.8436,34.8389,Beira Terrace Hotel
455,Uchiza,PE,80.44,broken clouds,-8.4592,-76.4633,Hotel San Pedro
456,Atherton,GB,61.9,scattered clouds,53.5237,-2.4935,The Mercury Motel
457,Barcelos,PT,83.91,overcast clouds,41.5388,-8.6151,Hotel Do Terço
458,Flinders,AU,58.37,few clouds,-34.5833,150.8552,Shellharbour Resort & Conference Centre
459,Naugachhia,IN,83.75,moderate rain,25.4,87.1,Balram Lodge (बलराम लौज)
460,Olafsvik,IS,48.2,overcast clouds,64.8945,-23.7142,Hotel Olafsvik
461,San Joaquin,US,62.55,clear sky,37.9333,-121.3011,University Plaza Waterfront Hotel
462,Bemidji,US,62.19,overcast clouds,47.4736,-94.8803,Hampton Inn & Suites Bemidji
463,Loa Janan,ID,75.4,moderate rain,-0.583,117.095,Kost bu jono
464,North Platte,US,67.37,broken clouds,41.1239,-100.7654,"Holiday Inn Express & Suites North Platte, an IHG Hotel"
465,Coihaique,CL,40.95,few clouds,-45.5752,-72.0662,Diego De Almagro Coyhaique
466,Cascais,PT,87.62,few clouds,38.6979,-9.4215,Hotel Vila Galé Cascais
467,Saint-Pierre,RE,71.28,clear sky,-21.3393,55.4781,Alize Plage
468,Lincoln,US,68.16,overcast clouds,40.8,-96.667,Courtyard by Marriott Lincoln Downtown/Haymarket
469,Mogok,MM,65.62,overcast clouds,22.9167,96.5,MOGOK HILL HOTEL
470,Dubai,AE,94.93,clear sky,25.2582,55.3047,"Radisson Blu Hotel, Dubai Deira Creek"
471,Port Blair,IN,81.05,overcast clouds,11.6667,92.75,"Welcomhotel By ITC Hotels, Bay Island, Port Blair"
473,Bac Lieu,VN,79.86,broken clouds,9.285,105.7244,Khách sạn Sài Gòn Bạc Liêu
474,Porto Seguro,BR,79.32,few clouds,-16.4497,-39.0647,Porto Cálem Praia Hotel
475,Thompson,CA,54.52,overcast clouds,55.7435,-97.8558,Burntwood Hotel
476,Warri,NG,82.24,light rain,5.5167,5.75,GT Guesthouse
478,Chum Phae,TH,76.39,overcast clouds,16.5443,102.0992,Major Grand
479,Roberval,CA,55.92,broken clouds,48.5168,-72.2324,Hôtel Château Roberval
480,Nabire,ID,73.33,overcast clouds,-3.3667,135.4833,Hotel Nusantara I
481,Roma,US,65.88,overcast clouds,43.2128,-75.4557,Wingate By Wyndham Rome
482,Honavar,IN,77.02,overcast clouds,14.2833,74.45,Hotel Sagar Residency
483,Mount Gambier,AU,49.91,scattered clouds,-37.8333,140.7667,The Commodore
484,Pitimbu,BR,86.59,broken clouds,-7.4706,-34.8086,Reserva do Abiaí
485,Mujiayingzi,CN,57.25,clear sky,42.1167,118.7833,Jinjiang Hotel
486,Kokopo,PG,77.16,overcast clouds,-4.352,152.2633,Kokopo Beach Bungalow Resort
487,Inongo,CD,76.3,broken clouds,-1.95,18.2667,Hotel Du Lac
488,Yining,CN,72.12,clear sky,29.0361,114.5636,Xiushui Hotel
489,Punta Alta,AR,68.23,overcast clouds,-38.8759,-62.0736,Center Hotel Punta Alta
491,Galle,LK,79.61,few clouds,6.0367,80.217,Amangalla
492,El Cobre,CU,87.24,few clouds,20.0489,-75.9469,Hotel El Cobre
493,Panaba,MX,84.65,few clouds,21.2833,-88.2667,Hotel Don Fernando
494,Rio Gallegos,AR,46.45,few clouds,-51.6226,-69.2181,Hotel Santa Cruz
495,Bogande,BF,86.86,scattered clouds,12.9714,-0.1436,Auberge Wendkouni
496,Nicoya,CR,80.58,few clouds,10.1483,-85.452,Las Cabinas Del Sueño
497,Ndola,ZM,85.24,broken clouds,-12.9587,28.6366,Chabanga Lodge iSpot
498,Nome,US,48.27,moderate rain,64.5011,-165.4064,Dredge 7 Inn
499,Mancio Lima,BR,89.53,scattered clouds,-7.6142,-72.8958,Motel Asas Do Desejo
500,Fethiye,TR,82.27,clear sky,36.6217,29.1164,Club & Hotel Letoonia
501,Ryotsu,JP,76.89,overcast clouds,38.0833,138.4333,Sadokamoko Onsen Kohanno Yado Yoshidaya
502,Kudahuvadhoo,MV,82.06,broken clouds,2.6708,72.8944,Niyama Private Islands Maldives
503,Cabedelo,BR,86.67,broken clouds,-6.9811,-34.8339,Pousada Camboinha
504,Foshan,CN,87.84,broken clouds,23.0268,113.1315,Crowne Plaza Foshan
505,Pelileo,EC,66.65,light rain,-1.3167,-78.5333,La Casta
506,Hovd,MN,46.8,overcast clouds,48.0056,91.6419,Hotel Khovd
508,Salym,RU,50.25,overcast clouds,60.0625,71.4789,Gostinitsa Salym
509,Santa Cruz De La Palma,ES,80.74,few clouds,28.6835,-17.7642,H10 Taburiente Playa
510,Namtsy,RU,40.93,overcast clouds,62.7161,129.6658,"""Эңсиэли Киин"""
512,Hofn,IS,46.56,overcast clouds,64.2539,-15.2082,Hótel Höfn
513,Corpus Christi,US,89.98,scattered clouds,27.8006,-97.3964,"Holiday Inn Corpus Christi Downtown Marina, an IHG Hotel"
514,Abha,SA,68.25,scattered clouds,18.2164,42.5053,Abha Hotel
515,Nadym,RU,53.53,overcast clouds,65.5333,72.5167,Apartment on Zvereva
516,Whitehorse,CA,33.31,clear sky,60.7161,-135.0538,The Sternwheeler Hotel & Conference Centre
517,Luganville,VU,78.06,broken clouds,-15.5333,167.1667,The Espiritu Hotel
518,Sao Joao Da Barra,BR,66.29,broken clouds,-21.6403,-41.0511,Pousada Porto De Canoas
519,Banyo,CM,71.17,moderate rain,6.75,11.8167,Motel JOMBA
520,Chabahar,IR,82.08,clear sky,25.2919,60.643,هتل گدروشیا
521,Nara,JP,80.49,heavy intensity rain,34.6851,135.8049,Guesthouse Nara Komachi
522,Felanitx,ES,77.95,broken clouds,39.4696,3.1483,Petit Hotel Hostatgeria Sant Salvador
523,Tobol,KZ,62.91,overcast clouds,52.6844,62.5794,Tobol Gostinitsa
524,Molo,KE,57.07,moderate rain,-0.2479,35.7374,EEL HOTEL
525,Manama,BH,95.18,clear sky,26.2154,50.5832,Al Safir Hotel
526,Naryan-Mar,RU,51.62,broken clouds,67.6713,53.087,Hostel Agat
527,Conde,BR,85.46,broken clouds,-7.2597,-34.9075,Pousada Beija Flor
528,Aksu,CN,78.13,overcast clouds,41.1231,80.2644,Pudong Holiday Hotel
529,Gushikawa,JP,82.4,overcast clouds,26.3544,127.8686,Kirari Guest House
530,Guangyuan,CN,68.23,broken clouds,32.442,105.823,Guangyuan Poetry Hotel
531,Sarakhs,IR,80.82,clear sky,36.5449,61.1577,مهمان سرای شرکت گاز
532,Mansa,IN,85.41,scattered clouds,29.9833,75.3833,STARiHOTEL Mansa
533,Taunggyi,MM,64.63,overcast clouds,20.7833,97.0333,True Treasure Hotel
535,Sao Felix Do Xingu,BR,99.52,overcast clouds,-6.6447,-51.995,Rio Xingu Camping
536,Havoysund,NO,46.63,light rain,70.9963,24.6622,Arctic View Glamping & Restaurant
537,Morden,CA,57.04,overcast clouds,49.1919,-98.1014,Morden Motor Inn
538,Alice Springs,AU,57.22,clear sky,-23.7,133.8833,Desert Palms Alice Springs
539,Levski,BG,75.56,overcast clouds,43.3667,25.1333,Family Hotel Arbanashka Sreshta
540,Salalah,OM,80.69,broken clouds,17.0151,54.0924,"HAMDAN PLAZA HOTEL SALALAH, an HTG Hotel"
541,Santa Isabel Do Rio Negro,BR,93.63,broken clouds,-0.4139,-65.0192,Hotel GSA
542,Cururupu,BR,86.07,overcast clouds,-1.8283,-44.8683,POUSADA TRAVÉS'CIA
543,Aksha,RU,43.03,overcast clouds,50.2814,113.2867,Vizit
544,Sande,DE,59.05,overcast clouds,53.5049,8.0142,Auf dem alten Deich
545,Myitkyina,MM,75.34,scattered clouds,25.3833,97.4,Shwe Phyu Hotel
549,Gonen,TR,92.01,clear sky,40.1049,27.654,Gönen Palmiye Butik Pansiyon
550,Bunschoten,NL,63.99,broken clouds,52.2333,5.3667,De Mandemaaker
551,Tabou,CI,79.34,broken clouds,4.423,-7.3528,hotêl doufoulougou
552,Kontagora,NG,72.43,overcast clouds,10.3999,5.4695,Queens Guest Inn
553,Djenne,ML,87.62,overcast clouds,13.9061,-4.5533,Hôtel Chez Baba
554,Rongcheng,CN,70.92,clear sky,30.634,117.8517,Shell Shandong Liaocheng Development District South Huangshan Road Hotel
555,Dharchula,IN,70.9,overcast clouds,29.85,80.5333,Mahara Hotel
556,Yelizovo,RU,37.11,clear sky,53.1873,158.3805,Kamchatskiy Stil' Hostel
557,Te Anau,NZ,36.45,overcast clouds,-45.4167,167.7167,Kingsgate Hotel Te Anau
558,Seoul,KR,74.59,scattered clouds,37.5683,126.9778,LOTTE HOTEL SEOUL
559,Deer Lake,CA,49.68,overcast clouds,49.1667,-57.4316,"Holiday Inn Express Deer Lake, an IHG Hotel"
560,Hay River,CA,49.57,overcast clouds,60.8156,-115.7999,Ptarmigan Inn
561,Gorontalo,ID,74.53,overcast clouds,0.5412,123.0595,Maqna Hotel by Prasanthi
562,Yuanping,CN,68.83,few clouds,38.7153,112.7575,Yuanping Xinghe Guesthouse
563,Altamira,BR,96.28,overcast clouds,-3.2033,-52.2064,Requinte Hotel
564,Milove,UA,68.34,scattered clouds,49.3787,40.1302,СТРЕЛЕЦКАЯ СЛОБОДА
565,Waggaman,US,84.99,scattered clouds,29.9185,-90.2109,"Candlewood Suites Avondale-New Orleans, an IHG Hotel"
566,Looc,PH,80.71,overcast clouds,12.2605,121.9926,Cummings Highlands
567,Mastic Beach,US,70.11,overcast clouds,40.7668,-72.8521,Brushwood House by Smith Point Beach
568,Shimoda,JP,75.11,overcast clouds,34.6667,138.95,Shimoda Tokyu Hotel
570,Leningradskiy,RU,34.23,snow,69.3833,178.4167,Gostinitsa
571,Uyuni,BO,49.75,clear sky,-20.4597,-66.825,Hostal La Magia de Uyuni
572,Honiara,SB,77.49,overcast clouds,-9.4333,159.95,Heritage Park Hotel
573,Shelburne,CA,70.75,broken clouds,44.0787,-80.2041,The Retreat at the Farm
575,Camana,PE,64.6,broken clouds,-16.6228,-72.7111,Hostal Morales
576,Puerto Penasco,MX,76.98,clear sky,31.3167,-113.5333,Playa Bonita Resort
577,Hvide Sande,DK,57.09,overcast clouds,56.0045,8.1294,Hvide Sande Hotel
578,Antofagasta,CL,60.08,clear sky,-23.65,-70.4,"Holiday Inn Express Antofagasta, an IHG Hotel"
579,Leshukonskoye,RU,50.92,light rain,64.8989,45.7622,Pryalitsa Hostel
580,Prince Rupert,CA,49.69,broken clouds,54.3161,-130.3201,Crest Hotel
583,Pangnirtung,CA,43.47,overcast clouds,66.1451,-65.7125,Kilabuk Lodge
585,Victoria,HK,88.18,scattered clouds,22.2855,114.1577,Mini Central
587,Kashi,CN,74.98,overcast clouds,39.4547,75.9797,帕米尔青年旅舍
588,Yanam,IN,78.78,broken clouds,16.7333,82.2167,The Regency Hotel
589,Pochutla,MX,71.82,overcast clouds,15.7432,-96.4661,Hotel Posada San Jose
590,Oistins,BB,87.89,broken clouds,13.0667,-59.5333,Butterfly Beach Hotel
591,Boddam,GB,54.64,overcast clouds,57.4667,-1.7833,Palace Hotel
592,Voznesenye,RU,49.91,overcast clouds,61.0106,35.4781,Gostinitsa
593,Asino,RU,50.07,overcast clouds,56.9979,86.1452,"Hotel ""Rainbow"""
594,Nelson Bay,AU,62.1,clear sky,-32.7167,152.15,Mantra Nelson Bay
595,Jijiga,ET,71.65,broken clouds,9.35,42.8,RAMAAS HOTEL
596,Zaranj,AF,89.96,clear sky,30.9667,61.8833,کارگاه بلوک زنی سرهنگ
598,Malanville,BJ,81.21,moderate rain,11.8685,3.3899,Hotel Sejour du Sahel
599,Shu,KZ,68.61,clear sky,43.5983,73.7614,Shyngyzkhan
602,Hami,CN,72.43,broken clouds,42.8,93.45,Laoyutang Resort
603,Ladario,BR,88.09,clear sky,-19.0047,-57.6017,Hotel Fazenda 4 cantos
604,Terra Santa,BR,99.09,overcast clouds,-2.1042,-56.4869,Hotel Sarah
605,Trinidad,BO,90.99,clear sky,-14.8333,-64.9,Hotel Piesta
606,Maldonado,UY,67.39,overcast clouds,-34.6667,-54.9167,La Cimarrona
607,Sangmelima,CM,75.61,moderate rain,2.9333,11.9833,gamestar hotel
608,Kupino,RU,51.91,few clouds,54.3663,77.2981,Hotel Sibiria Inn
609,Port Augusta,AU,48.25,clear sky,-32.5,137.7667,Majestic Oasis Apartments
610,Dicabisagan,PH,78.08,overcast clouds,17.0818,122.4157,Nancy Montanes Bernardo
611,Belfast,GB,59.59,broken clouds,54.5833,-5.9333,Wellington Park Hotel
612,Korla,CN,75.47,overcast clouds,41.7597,86.1469,Gulisitan Hotel
613,Ucluelet,CA,47.08,overcast clouds,48.9329,-125.5528,Black Rock Oceanfront Resort
614,Robertsport,LR,78.03,moderate rain,6.7533,-11.3686,Kwepunha Retreat
615,Ojinaga,MX,79.75,clear sky,29.5667,-104.4167,Suites Las Palmas
619,Palmer,US,65.34,few clouds,42.1584,-72.3287,Wedgewood Motel
620,Kargasok,RU,50.43,overcast clouds,59.0556,80.8572,Hotel Kargasok
621,Haian,CN,73.99,clear sky,32.5436,120.45,Zhongyang Shanghai Min
622,Bireun,ID,79.7,scattered clouds,5.203,96.7009,Rumah Bp.AR. ISMAIL
623,Jiujiang,CN,80.01,scattered clouds,29.7333,115.9833,Tianhai Fashion Theme Hotel
624,Caucaia,BR,85.95,broken clouds,-3.7361,-38.6531,M.O.S. Logística - Filial Fortaleza
625,Karaton,ID,74.44,broken clouds,-6.3424,106.1045,Parkir Mobil Wisata CAS Water Park
626,Pak Phanang,TH,81.36,broken clouds,8.3511,100.202,Green Park Inn Hotel
628,Medicine Hat,CA,55.22,few clouds,50.0501,-110.6683,Ramada Limited Medicine Hat
629,Havre-Saint-Pierre,CA,48.2,broken clouds,50.2334,-63.5986,Auberge Niapiskau 2
630,Broome,US,72.66,clear sky,42.2506,-75.833,Chenango Valley State Park
631,Den Helder,NL,59.99,scattered clouds,52.9599,4.7593,Hotel Den Helder
633,Taltal,CL,59.74,clear sky,-25.4,-70.4833,Residencial Karime
634,Thung Song,TH,74.77,few clouds,8.1645,99.6804,Jasmine Resort And Spa
635,Pangai,TO,76.48,clear sky,-19.8,-174.35,Ha'apai Beach Resort
636,Souillac,MU,71.98,light rain,-20.5167,57.5167,Shanti Maurice Resort & Spa
637,Prainha,BR,94.21,scattered clouds,-1.8,-53.48,Casa Rocha
638,Cervo,ES,68.97,overcast clouds,43.6702,-7.4101,Hotel Spa Galatea
640,Klaksvik,FO,52.72,overcast clouds,62.2266,-6.589,Airbnb rooms
641,Sioux Lookout,CA,53.67,mist,50.1001,-91.917,Knobby's Fly-In Camps
642,Nampula,MZ,83.17,few clouds,-15.1165,39.2666,Ruby Backpackers
644,Daru,PG,79.11,overcast clouds,-9.0763,143.2092,Daru Lodge
646,Fukue,JP,80.47,overcast clouds,32.6881,128.8419,Goto Guesthouse Utojuku & SA Car Rental
647,Kaoma,ZM,90.75,broken clouds,-14.7833,24.8,KAOMA AIRPORT
648,Brae,GB,49.24,overcast clouds,60.3964,-1.353,Busta House Hotel
649,Chamonix-Mont-Blanc,FR,60.49,scattered clouds,45.9238,6.8693,Hôtel Vallée Blanche
650,Seydi,TM,80.29,clear sky,39.4816,62.9137,Seydi oteli
651,Bundaberg,AU,65.21,scattered clouds,-24.85,152.35,Takalvan Motel
652,Biarritz,FR,77.65,clear sky,43.4801,-1.5556,Hôtel de l'ocean
653,Steenwijk,NL,58.01,broken clouds,52.7875,6.1208,Fletcher Hotel-Restaurant Steenwijk
654,Webuye,KE,68.9,light rain,0.6075,34.7697,Satellite View Hotel
656,Fayaoue,NC,74.35,clear sky,-20.65,166.5333,Chez Dydyce Guesthouse
657,Roebourne,AU,73.31,clear sky,-20.7833,117.1333,Latitude20 Roebourne Village
658,Macon,US,78.26,scattered clouds,39.8667,-88.9668,Haworth Cottage
659,Severo-Yeniseyskiy,RU,42.87,overcast clouds,60.3725,93.0408,Aktolik
660,Yulara,AU,60.53,clear sky,-25.2406,130.9889,Desert Gardens Hotel - Ayers Rock Resort
661,Hella,NO,58.05,clear sky,67.2,14.4333,Djupvatnet rasteplass
662,San Isidro,PE,60.39,overcast clouds,-12.1167,-77.05,Radisson Hotel Decapolis Miraflores
663,Belmonte,BR,77.56,broken clouds,-15.8631,-38.8828,Pousada Monte Carmelo O Pão
664,Diego De Almagro,CL,65.14,broken clouds,-26.3667,-70.05,hotel luna del desierto
667,Rantepao,ID,67.46,overcast clouds,-2.9701,119.8978,Hotel Luta Resort
668,Gonbad-E Qabus,IR,82.9,clear sky,37.25,55.1672,گلکده گلشن
669,Vicam,MX,84.54,clear sky,27.6333,-110.2833,Hotel Las Palmas
670,Sale,MA,77.68,few clouds,34.0389,-6.8166,Hôtel Mercure Rabat Sheherazade
671,Maun,BW,90.19,clear sky,-19.9833,23.4167,Enviro Villa
672,Charlestown,AU,60.58,clear sky,-32.95,151.6667,Panorama Motor Inn Hotel
674,Grindavik,IS,52.27,broken clouds,63.8424,-22.4338,Northern Light Inn & Max's Restaurant
676,Petrovac,RS,57.25,overcast clouds,44.3769,21.4192,Sobe Zlatnik
677,Skegness,GB,64.06,overcast clouds,53.1436,0.3363,The Royal Hotel
678,Ust-Nera,RU,33.67,overcast clouds,64.5667,143.2,Hotel Ust-Nera
679,Jaciara,BR,98.98,clear sky,-15.9653,-54.9683,Taba Hotel
680,Chernushka,RU,56.64,overcast clouds,56.5072,56.0766,Гостиница на Ленина
681,Black Forest,US,65.34,clear sky,39.0131,-104.7008,The Black Forest Inn Colorado Springs
682,Kericho,KE,59.18,light rain,-0.3677,35.2831,Taidy's Kericho
683,Kazachinskoye,RU,44.08,scattered clouds,57.6953,93.2761,"Tayga, Gostinitsa"
684,Tanda,IN,77.58,moderate rain,26.55,82.65,MUMTAZ GANJ TANDA
685,Nador,MA,79.05,few clouds,35.174,-2.9287,Hôtel La Giralda
686,Nuuk,GL,50.61,broken clouds,64.1835,-51.7216,Vandrehuset
687,Miguel Hidalgo,MX,64.33,broken clouds,19.4225,-99.2028,JW Marriott Hotel Mexico City
688,Boyolangu,ID,74.68,scattered clouds,-8.1181,111.8935,Yos ega cv
689,Nosy Varika,MG,70.45,clear sky,-20.5833,48.5333,Hotel Volazara
690,Sayyan,YE,71.67,overcast clouds,15.1718,44.3244,متنزه و بحيرة سيان
692,Fallon,US,62.46,broken clouds,39.4735,-118.7774,Best Western Fallon Inn & Suites
693,Oktyabrskiy,RU,61.57,overcast clouds,54.4815,53.471,Гостиница Октябрьская
694,Trelew,AR,50.9,overcast clouds,-43.249,-65.3051,Hotel Touring Club
695,Vredendal,ZA,61.43,overcast clouds,-31.6683,18.5012,Tharrakamma Guest House
696,Trogir,HR,60.85,clear sky,43.5125,16.2517,Hotel Medena
697,Biak,ID,75.13,overcast clouds,-0.9131,122.8766,Penginapan Kim
698,Mehamn,NO,46.31,drizzle rain,71.0357,27.8492,Mehamn Arctic Hotel AS
699,Mumford,GH,78.42,scattered clouds,5.2618,-0.759,Spanish Villa
700,Liverpool,GB,62.29,scattered clouds,53.4106,-2.9779,Premier Inn Liverpool City Centre (Moorfields) hotel
701,Belebey,RU,58.5,overcast clouds,54.1167,54.1167,"Gostinitsa ""Belebey"""
702,Salamiyah,SY,91.04,clear sky,35.0113,37.0532,Gondolas Forum grandchildren and grandparents
703,Buchanan,LR,78.96,light rain,5.8808,-10.0467,Kamaneahn Hotel Inc
705,Eyl,SO,78.03,scattered clouds,7.9803,49.8164,Amiin Hotel
706,Havelock,US,78.78,clear sky,34.8791,-76.9013,Sherwood Motel
707,Sinnamary,GF,86.77,few clouds,5.3833,-52.95,ALETHEIA Appartement Sinnamary
